,City,Cloudiness,Country,Date,Humidity,Lat,Lng,Max Temp,Wind Speed
0,Rikitea,4,PF,1584487686,78,-23.12,-134.97,80.97799999999997,5.32
1,Palmer,75,US,1584487649,75,42.16,-72.33,48.469999999999956,2.1
2,Samarai,38,PG,1584487692,74,-10.62,150.67,82.65199999999999,2.49
3,Conde,30,BR,1584487693,83,-7.26,-34.91,80.86999999999996,3.1
4,Tuktoyaktuk,75,CA,1584487693,84,69.45,-133.04,1.669999999999959,1.5
5,Ushuaia,40,AR,1584487638,41,-54.8,-68.3,57.469999999999956,7.2
6,Santa Cruz del Norte,75,CU,1584487694,61,23.15,-81.92,82.66999999999996,3.6
7,Touros,20,BR,1584487695,83,-5.2,-35.46,80.86999999999996,3.1
8,Koungheul,0,SN,1584487523,33,13.98,-14.8,76.04600000000005,5.35
9,Albany,75,US,1584487695,89,42.6,-73.97,46.66999999999996,4.1
10,Marsh Harbour,7,BS,1584487534,70,26.54,-77.06,72.42799999999997,3.94
11,Bluff,24,NZ,1584487620,74,-46.6,168.33,56.26400000000004,2.24
12,Halifax,90,CA,1584487416,96,44.65,-63.57,34.26799999999999,6.2
13,Bredasdorp,27,ZA,1584487472,77,-34.53,20.04,66.46999999999997,3.1
14,Bonanza,54,NI,1584487697,96,14.03,-84.59,71.52799999999996,1.25
15,Bryan,40,US,1584487697,61,30.67,-96.37,82.66999999999996,4.6
16,Awjilah,0,LY,1584487698,34,29.11,21.29,58.424000000000014,5.11
17,Hengshui,0,CN,1584487698,18,37.73,115.7,60.8,5.58
18,Tepelenë,0,AL,1584487698,60,40.3,20.02,48.272000000000034,0.89
19,Nikolskoye,75,RU,1584487699,80,59.7,30.79,39.469999999999956,4.0
20,Pevek,100,RU,1584487699,95,69.7,170.31,25.285999999999966,5.24
21,Itarema,86,BR,1584487699,88,-2.92,-39.92,76.65800000000002,1.7
22,Bushenyi,99,UG,1584487699,90,-0.59,30.21,64.52599999999998,0.24
23,Dikson,92,RU,1584487700,100,73.51,80.55,-8.320000000000014,2.88
24,Yellowknife,75,CA,1584487647,64,62.46,-114.35,2.2640000000000313,3.1
25,Avarua,100,CK,1584487471,88,-21.21,-159.78,80.86999999999996,8.2
26,Iskateley,100,RU,1584487700,93,67.68,53.15,25.627999999999965,8.66
27,Vila Franca do Campo,20,PT,1584487615,82,37.72,-25.43,55.66999999999996,1.5
28,Lambaréné,100,GA,1584487707,97,-0.7,10.24,75.57799999999997,0.85
29,Punta Arenas,75,CL,1584487447,54,-53.15,-70.92,55.66999999999996,10.8
30,Barrow,1,US,1584487708,85,71.29,-156.79,10.669999999999959,5.7
31,Ponta do Sol,40,PT,1584487600,72,32.67,-17.1,59.26999999999996,8.2
32,San Patricio,40,MX,1584487708,78,19.22,-104.7,82.66999999999996,5.1
33,Anchorage,90,US,1584487437,79,61.22,-149.9,29.26400000000003,2.1
34,Busselton,35,AU,1584487709,94,-33.65,115.33,54.266000000000005,7.81
35,Lorengau,100,PG,1584487709,76,-2.02,147.27,83.51600000000002,3.38
36,Werda,32,BW,1584487710,77,-25.27,23.28,66.29000000000002,7.88
37,Paracambi,90,BR,1584487710,94,-22.61,-43.71,75.46999999999997,6.2
38,Upernavik,30,GL,1584487710,51,72.79,-56.15,-11.794000000000025,2.83
39,Deputatsky,33,RU,1584487711,90,69.3,139.9,-17.48200000000002,2.99
40,Kavieng,100,PG,1584487711,77,-2.57,150.8,83.04800000000003,5.95
41,Tiksi,89,RU,1584487547,88,71.69,128.87,-30.58600000000002,3.53
42,Chokurdakh,100,RU,1584487579,92,70.63,147.92,-6.825999999999986,6.61
43,Puqi,1,CN,1584487712,81,29.72,113.88,54.21199999999996,0.78
44,Alofi,75,NU,1584487712,74,-19.06,-169.92,86.26999999999995,5.1
45,Thompson,5,CA,1584487462,45,55.74,-97.86,5.269999999999957,4.1
46,Loandjili,20,CG,1584487713,94,-4.76,11.86,79.06999999999996,2.1
47,Kapaa,75,US,1584487713,100,22.08,-159.32,73.66999999999996,4.1
48,Bengkulu,69,ID,1584487589,90,-3.8,102.27,74.67799999999997,1.68
49,Mataura,1,NZ,1584487481,74,-46.19,168.86,56.26400000000004,2.24
50,Boyolangu,51,ID,1584487714,86,-8.12,111.89,77.558,0.29
51,Hobart,75,AU,1584487499,49,-42.88,147.33,71.27599999999998,4.6
52,Puerto Ayora,20,EC,1584487715,62,-0.74,-90.35,84.46999999999997,4.1
53,Kearney,90,US,1584487715,93,40.7,-99.08,41.26999999999996,5.7
54,Hermanus,2,ZA,1584487616,92,-34.42,19.23,64.27400000000002,0.51
55,Kangaatsiaq,100,GL,1584487716,69,68.31,-53.46,12.524000000000012,9.49
56,Segezha,100,RU,1584487716,97,63.74,34.32,34.592,7.19
57,Ambatofinandrahana,13,MG,1584487716,94,-20.55,46.8,60.54800000000003,1.24
58,Dawson Creek,1,CA,1584487716,62,55.77,-120.24,25.069999999999958,2.1
59,Pontal do Paraná,90,BR,1584487717,100,-25.65,-48.51,79.26799999999999,4.1
60,Yumen,81,CN,1584487665,29,40.28,97.2,35.24000000000002,4.05
61,Laguna de Duero,29,ES,1584487717,93,41.58,-4.72,52.26799999999999,5.1
62,Bulgan,47,MN,1584487717,82,48.81,103.53,14.414000000000033,1.7
63,Horsham,75,GB,1584487717,93,51.06,-0.33,51.27799999999996,4.6
64,Muli,75,MV,1584487718,78,2.92,73.57,84.66799999999998,8.6
65,Dwārka,0,IN,1584487619,65,22.24,68.97,77.99000000000002,4.16
66,Dickinson,20,US,1584487719,61,29.46,-95.05,81.26600000000002,5.7
67,Arraial do Cabo,82,BR,1584487721,86,-22.97,-42.03,78.87200000000004,2.52
68,Vila Velha,40,BR,1584487721,83,-20.33,-40.29,80.86999999999996,2.1
69,Bathsheba,40,BB,1584487595,69,13.22,-59.52,79.06999999999996,4.6
70,Port Hedland,0,AU,1584487721,83,-20.32,118.57,80.86999999999996,1.5
71,George Town,20,MY,1584487461,88,5.41,100.34,80.27599999999998,2.1
72,Kot Īsa Khān,11,IN,1584487722,71,30.95,75.13,57.667999999999985,1.35
73,‘Ewa Beach,90,US,1584487722,94,21.32,-158.01,75.46999999999997,3.6
74,Yaan,95,NG,1584487709,46,7.38,8.57,86.14399999999998,3.71
75,Nanortalik,17,GL,1584487487,55,60.14,-45.24,20.048000000000023,4.88
76,Carnarvon,100,AU,1584487722,68,-24.87,113.63,71.86999999999996,6.2
77,East London,66,ZA,1584487723,82,-33.02,27.91,69.80000000000001,5.03
78,Port-Gentil,40,GA,1584487723,83,-0.72,8.78,84.46999999999997,4.6
79,Saint Paul Harbor,1,US,1584487475,70,57.79,-152.41,44.86999999999996,4.1
80,Yangi Marg`ilon,72,UZ,1584487585,46,40.43,71.72,53.86999999999996,3.1
81,Ambilobe,65,MG,1584487723,91,-13.2,49.05,75.2,1.17
82,Padang,51,ID,1584487691,87,-0.95,100.35,69.24199999999999,2.28
83,Bethel,40,US,1584487615,66,41.37,-73.41,52.26799999999999,1.5
84,Belmopan,75,BZ,1584487639,46,17.25,-88.77,89.86999999999996,2.1
85,Prieska,12,ZA,1584487724,61,-29.66,22.75,69.368,2.85
86,Jumla,0,NP,1584487725,51,29.27,82.18,30.38000000000004,2.49
87,Yerbogachën,26,RU,1584487725,94,61.28,108.01,-9.363999999999983,1.42
88,Batagay,100,RU,1584487575,95,67.63,134.63,-2.4879999999999924,1.76
89,Airai,0,TL,1584487591,67,-8.93,125.41,73.16600000000001,2.02
90,Eyl,33,SO,1584487726,75,7.98,49.82,80.00600000000003,6.76
91,New Norfolk,75,AU,1584487606,49,-42.78,147.06,71.27599999999998,4.6
92,Tasiilaq,100,GL,1584487727,72,65.61,-37.64,10.669999999999959,4.32
93,Kaitangata,2,NZ,1584487613,72,-46.28,169.85,49.477999999999966,2.28
94,Khatanga,89,RU,1584487728,87,71.97,102.5,-14.386000000000017,3.58
95,Walvis Bay,0,NA,1584487728,95,-22.96,14.51,62.27599999999999,2.91
96,Hamilton,1,US,1584487669,50,39.18,-84.53,52.26799999999999,1.5
97,Banjar,20,ID,1584487729,94,-8.19,114.97,79.06999999999996,2.1
98,Saskylakh,17,RU,1584487729,79,71.92,114.08,-21.424000000000014,4.6
99,Bar Harbor,90,US,1584487729,100,44.39,-68.2,39.272000000000034,2.6
100,Souillac,40,MU,1584487506,88,-20.52,57.52,77.26999999999995,2.39
101,Lebu,0,CL,1584487730,83,-37.62,-73.65,57.57799999999996,3.66
102,Rawson,0,AR,1584487499,65,-43.3,-65.1,60.70999999999998,3.78
103,Kudahuvadhoo,71,MV,1584487731,78,2.67,72.89,84.84800000000003,7.18
104,Norman Wells,90,CA,1584487647,85,65.28,-126.83,23.26999999999996,1.5
105,Coahuayana Viejo,40,MX,1584487731,54,18.73,-103.68,80.86999999999996,7.7
106,Harper,84,LR,1584487732,95,4.38,-7.72,77.558,1.51
107,Vaini,75,TO,1584487732,94,-21.2,-175.2,77.26999999999995,1.5
108,Gander,90,CA,1584487733,68,48.97,-54.59,25.069999999999958,9.3
109,Hilo,90,US,1584487466,74,19.73,-155.09,79.06999999999996,7.2
110,Port Lincoln,83,AU,1584487733,27,-34.73,135.87,82.076,3.54
111,Cidreira,96,BR,1584487735,79,-30.18,-50.21,73.85,9.99
112,Ust-Nera,47,RU,1584487735,94,64.57,143.2,-13.233999999999995,1.44
113,Trincomalee,100,LK,1584487735,96,8.57,81.23,74.28200000000001,1.36
114,Cape Town,8,ZA,1584487045,88,-33.93,18.42,67.26199999999996,4.6
115,Buin,0,CL,1584487736,40,-33.73,-70.75,75.46999999999997,3.1
116,Ketchikan,1,US,1584487737,65,55.34,-131.65,46.66999999999996,7.7
117,Beloha,47,MG,1584487737,95,-25.17,45.05,66.74000000000002,2.59
118,Huilong,0,CN,1584487738,65,31.81,121.66,60.27799999999996,3.67
119,Novorzhev,99,RU,1584487738,84,57.03,29.33,35.492,4.99
120,Dunedin,0,NZ,1584487539,54,-45.87,170.5,59.26999999999996,4.02
121,Sitka,40,US,1584487739,72,57.05,-135.33,44.86999999999996,6.2
122,Ko Samui,20,TH,1584487739,74,9.54,99.94,82.66999999999996,4.5
123,Aykhal,0,RU,1584487740,82,66.0,111.5,-18.12999999999999,2.0
124,Mount Gambier,75,AU,1584487740,35,-37.83,140.77,73.66999999999996,6.2
125,Udachny,0,RU,1584487740,82,66.42,112.4,-18.12999999999999,2.0
126,Provideniya,75,RU,1584487646,92,64.38,-173.3,30.46999999999996,10.0
127,Usakos,75,NA,1584487741,70,-22.0,15.6,72.24800000000002,4.0
128,Qaanaaq,98,GL,1584487742,59,77.48,-69.36,-19.587999999999994,2.71
129,Tombouctou,97,ML,1584487742,10,20.0,-3.0,78.00800000000001,3.73
130,Beni Mazar,0,EG,1584487742,62,28.5,30.8,52.17799999999997,5.43
131,Iquique,17,CL,1584487742,64,-20.22,-70.14,73.66999999999996,7.7
132,Biryukove,0,UA,1584487742,63,47.96,39.74,28.66999999999996,1.0
133,Comodoro Rivadavia,20,AR,1584487743,72,-45.87,-67.5,62.86999999999996,7.2
134,Byron Bay,36,AU,1584487318,56,-28.65,153.62,73.66999999999996,6.2
135,Qaqortoq,32,GL,1584487536,46,60.72,-46.03,10.669999999999959,3.1
136,Banes,20,CU,1584487743,54,20.96,-75.72,79.06999999999996,6.7
137,Fortuna,90,US,1584487744,87,40.6,-124.16,49.26199999999996,5.1
138,Hella,75,NO,1584487744,95,67.2,14.43,37.66999999999996,9.8
139,Kahului,40,US,1584487653,65,20.89,-156.47,82.66999999999996,4.1
140,Hualmay,100,PE,1584487613,70,-11.1,-77.61,73.52599999999998,2.74
141,Ulladulla,0,AU,1584487745,64,-35.35,150.47,68.26999999999995,3.6
142,Abu Kamal,100,SY,1584487745,82,34.45,40.92,60.78200000000002,3.38
143,Adrar,83,MR,1584487745,27,20.5,-10.07,67.85600000000002,4.99
144,Tura,0,IN,1584487608,44,25.52,90.22,65.066,1.19
145,Saint-Maximin-la-Sainte-Baume,0,FR,1584487746,87,43.45,5.86,53.27599999999999,1.0
146,Portland,1,US,1584487501,29,45.52,-122.68,62.27599999999999,4.1
147,Great Falls,1,US,1584487747,64,47.5,-111.3,37.274000000000015,5.1
148,Port Elizabeth,0,ZA,1584487747,64,-33.92,25.57,70.06999999999996,3.6
149,San Quintín,45,MX,1584487748,55,30.48,-115.95,60.49399999999997,3.33
150,Qasigiannguit,96,GL,1584487749,59,68.82,-51.19,3.46999999999996,9.8
151,Butaritari,0,KI,1584487749,75,3.07,172.79,83.62400000000002,5.67
152,Alpena,1,US,1584487749,37,45.06,-83.43,37.66999999999996,4.1
153,Ereymentau,71,KZ,1584487749,94,51.62,73.1,20.138000000000044,7.24
154,Hambantota,100,LK,1584487750,80,6.12,81.12,79.01600000000002,4.67
155,Port Alfred,24,ZA,1584487752,95,-33.59,26.89,68.26999999999995,3.57
156,Kalāleh,100,IR,1584487753,93,37.38,55.49,50.26999999999996,2.1
157,Hukuntsi,45,BW,1584487753,54,-24.0,21.75,71.65399999999995,4.92
158,Narsaq,14,GL,1584487512,46,60.92,-46.05,10.669999999999959,3.1
159,Herndon,75,US,1584487675,55,38.97,-77.39,64.66999999999996,3.1
160,Naze,98,JP,1584487753,63,28.37,129.48,64.66999999999996,2.1
161,Medfield,1,US,1584487755,81,42.19,-71.31,46.66999999999996,2.58
162,Athabasca,100,CA,1584487756,86,54.72,-113.29,22.19000000000002,1.65
163,Adeje,40,ES,1584487697,67,28.12,-16.73,64.27400000000002,2.6
164,Xudat,85,AZ,1584487756,84,41.63,48.68,29.60600000000003,1.29
165,Tateyama,20,JP,1584487756,50,34.98,139.87,55.66999999999996,3.1
166,Tromsø,75,NO,1584487473,94,69.65,18.96,37.66999999999996,6.7
167,Shimoda,40,JP,1584487577,53,34.67,138.95,58.26199999999996,4.6
168,Hithadhoo,65,MV,1584487616,76,-0.6,73.08,84.74000000000002,5.69
169,Sirte,100,LY,1584487758,75,31.21,16.59,57.41600000000001,3.43
170,Bilma,0,NE,1584487758,9,18.69,12.92,73.66999999999996,4.25
171,Puerto Madryn,0,AR,1584487542,63,-42.77,-65.04,57.21799999999999,2.96
172,Hong Kong,20,HK,1584487699,73,22.29,114.16,72.26600000000002,4.1
173,Aller,40,ES,1584487759,87,43.12,-5.58,52.069999999999965,3.1
174,Srandakan,92,ID,1584487759,86,-7.94,110.25,77.54000000000002,1.94
175,Aklavik,75,CA,1584487759,67,68.22,-135.01,23.26999999999996,1.0
176,Maragogi,17,BR,1584487759,75,-9.01,-35.22,83.71400000000003,5.65
177,Doha,1,QA,1584487697,77,25.29,51.53,75.27200000000005,3.1
178,Sami,0,GM,1584487760,30,13.58,-15.2,77.35999999999999,4.84
179,Atuona,1,PF,1584487760,73,-9.8,-139.03,83.20999999999998,4.49
180,Nome,90,US,1584487761,92,64.5,-165.41,30.46999999999996,5.7
181,Ruangwa,100,TZ,1584487761,95,-10.07,38.93,69.69200000000001,1.01
182,Lander,1,US,1584487761,49,42.83,-108.73,51.27799999999996,1.5
183,Bay Roberts,75,CA,1584487763,73,47.6,-53.26,28.27400000000001,8.7
184,Alta Floresta,100,BR,1584487628,93,-9.88,-56.09,74.78599999999997,0.62
185,Iqaluit,90,CA,1584487763,78,63.75,-68.51,16.069999999999958,7.2
186,Mehamn,75,NO,1584487591,79,71.04,27.85,28.66999999999996,1.0
187,Tuatapere,18,NZ,1584487764,74,-46.13,167.68,56.26400000000004,2.24
188,Teguise,40,ES,1584487703,59,29.06,-13.56,61.069999999999965,5.7
189,Salalah,75,OM,1584487721,73,17.02,54.09,77.26999999999995,2.6
190,North Bend,90,US,1584487777,87,43.41,-124.22,53.27599999999999,5.1
191,Saint-Pierre,90,RE,1584487778,88,-21.34,55.48,75.46999999999997,3.1
192,Grindavik,90,IS,1584487508,86,63.84,-22.43,32.26999999999996,9.8
193,Wattegama,100,LK,1584487778,91,6.8,81.48,73.47200000000004,0.6
194,Mar del Plata,100,AR,1584487693,88,-38.0,-57.56,68.26999999999995,1.5
195,Douglas,90,US,1584487664,75,41.3,-96.17,47.26400000000003,4.1
196,Codrington,100,AU,1584487779,57,-38.27,141.97,67.892,6.31
197,Luanda,20,AO,1584487592,83,-8.84,13.23,80.86999999999996,2.32
198,Pierre,90,US,1584487781,67,44.37,-100.35,41.26999999999996,8.2
199,Umluj,0,SA,1584487782,60,25.02,37.27,66.16400000000004,5.05
200,Novoagansk,100,RU,1584487782,95,61.94,76.66,20.48000000000004,4.15
201,Kavaratti,29,IN,1584487783,68,10.57,72.64,82.88599999999997,2.53
202,Fort Nelson,75,CA,1584487702,80,58.81,-122.7,32.26999999999996,4.1
203,Biak,45,ID,1584487784,72,-0.91,122.88,80.86999999999996,1.72
204,Hervey Bay,27,AU,1584487517,57,-25.3,152.85,79.26799999999999,7.2
205,Omboué,97,GA,1584487785,94,-1.57,9.26,75.75800000000001,0.8
206,Pisco,90,PE,1584487786,30,-13.7,-76.22,71.86999999999996,8.2
207,Longyearbyen,20,SJ,1584487786,75,78.22,15.64,-18.12999999999999,3.1
208,Cherskiy,100,RU,1584487786,93,68.75,161.3,3.217999999999982,6.16
209,Darnah,0,LY,1584487786,61,32.77,22.64,57.811999999999955,8.79
210,Altay,32,CN,1584487787,38,47.87,88.12,28.417999999999985,2.44
211,Ballina,26,AU,1584487787,78,-28.87,153.57,71.86999999999996,4.1
212,Southbridge,90,US,1584487650,81,42.08,-72.03,48.469999999999956,3.6
213,Ojinaga,75,MX,1584487544,33,29.57,-104.42,77.26999999999995,2.6
214,Ribeira Grande,12,PT,1584487857,88,38.52,-28.7,58.87400000000001,4.5
215,Port Hardy,20,CA,1584487859,65,50.7,-127.42,46.66999999999996,2.6
216,Valdivia,14,CL,1584487765,60,-39.81,-73.25,68.26999999999995,2.6
217,Torbay,75,CA,1584487564,73,47.67,-52.73,28.27400000000001,8.7
218,Jamestown,20,US,1584487727,79,42.1,-79.24,41.26999999999996,6.2
219,Swan Hill,0,AU,1584487861,40,-35.34,143.55,79.26799999999999,2.24
220,Uglovskoye,77,RU,1584487862,87,51.36,80.19,26.941999999999997,3.78
221,Pizarro,42,CO,1584487864,82,4.95,-77.37,79.84399999999997,3.46
222,Bambous Virieux,40,MU,1584487865,88,-20.34,57.76,77.26999999999995,4.54
223,Svetlaya,66,RU,1584487866,62,46.54,138.33,30.74000000000002,1.2
224,Guymon,90,US,1584487626,93,36.68,-101.48,50.26999999999996,6.7
225,Mata Grande,62,BR,1584487867,76,-9.12,-37.73,77.86400000000003,2.29
226,Kununurra,0,AU,1584487716,74,-15.77,128.73,84.46999999999997,1.5
227,Aksu,25,CN,1584487870,30,41.12,80.26,43.34000000000002,2.32
228,Mackenzie,75,CA,1584487872,40,55.3,-123.17,35.86999999999996,3.1
229,Dodge City,90,US,1584487581,93,37.75,-100.02,44.86999999999996,4.6
230,Sydney,20,AU,1584487800,60,-33.87,151.21,74.26400000000004,3.1
231,Belaya Gora,96,RU,1584487872,90,68.53,146.42,-3.8559999999999803,4.27
232,Kasama,98,ZM,1584487873,96,-10.21,31.18,62.86999999999996,1.12
233,Muros,0,ES,1584487772,87,42.78,-9.06,61.26799999999999,3.6
234,Zaysan,68,KZ,1584487875,58,47.47,84.87,30.038000000000046,0.71
235,Faanui,100,PF,1584487876,70,-16.48,-151.75,83.69600000000005,3.07
236,Berlevåg,75,NO,1584487622,79,70.86,29.09,26.86999999999996,1.0
237,Waipawa,62,NZ,1584487878,67,-41.41,175.52,62.27599999999999,4.1
238,Abashiri,35,JP,1584487879,63,44.02,144.27,30.46999999999996,3.1
239,Murud,24,IN,1584487880,43,18.33,72.97,76.67599999999999,1.7
240,Honiara,20,SB,1584487881,74,-9.43,159.95,88.06999999999996,3.1
241,San Rafael,0,AR,1584487881,28,-34.62,-68.33,68.75600000000003,4.29
242,Chara,100,RU,1584487882,79,56.91,118.26,21.416000000000007,1.17
243,Zhigansk,0,RU,1584487883,91,66.77,123.37,-28.246000000000002,5.04
244,Castro,0,BR,1584487619,97,-24.79,-50.01,65.67799999999997,2.64
245,Nelson Bay,20,AU,1584487760,77,-32.72,152.15,72.26600000000002,2.6
246,Maxixe,25,MZ,1584487885,77,-23.86,35.35,74.30000000000001,6.33
247,Bosilegrad,8,RS,1584487885,77,42.5,22.47,34.46600000000001,2.28
248,Innerleithen,40,GB,1584487887,93,55.62,-3.06,43.26799999999999,3.1
249,Taksimo,62,RU,1584487887,83,56.34,114.88,15.619999999999958,2.43
250,Fethiye,0,TR,1584487888,34,36.62,29.12,50.26999999999996,9.8
251,Saint George,20,US,1584487607,47,37.1,-113.58,61.069999999999965,6.7
252,Springbok,0,ZA,1584487890,60,-29.66,17.89,52.82599999999999,1.08
253,Ancud,13,CL,1584487891,76,-41.87,-73.82,55.66999999999996,3.1
254,Esim,100,GH,1584487892,85,4.87,-2.24,80.47400000000002,2.69
255,Fowa,100,NG,1584487893,41,8.92,6.4,86.75600000000003,0.87
256,Sola,100,VU,1584487775,72,-13.88,167.55,84.50600000000003,3.67
257,Lavrentiya,100,RU,1584487885,92,65.58,-171.0,31.064000000000032,5.25
258,Diu,13,IN,1584487895,62,20.71,70.98,77.30600000000004,8.27
259,Suda,100,RU,1584487779,84,59.15,37.56,34.12400000000001,4.88
260,Saint-Philippe,90,RE,1584487898,88,-21.36,55.77,75.46999999999997,3.1
261,Broome,75,US,1584487899,60,42.25,-75.83,44.27599999999999,6.2
262,Vawkavysk,100,BY,1584487900,82,53.16,24.45,39.685999999999964,3.13
263,Srednekolymsk,82,RU,1584487900,91,67.45,153.68,-6.717999999999982,4.31
264,Otjimbingwe,53,NA,1584487906,69,-22.35,16.13,71.78000000000004,1.45
265,Peace River,90,CA,1584487908,62,56.25,-117.29,21.469999999999956,2.6
266,Āsosa,72,ET,1584487909,18,10.07,34.53,71.49199999999999,2.6
267,Saldanha,0,ZA,1584487909,82,-33.01,17.94,62.86999999999996,3.1
268,Acapulco de Juárez,5,MX,1584487647,79,16.86,-99.89,84.46999999999997,6.2
269,Huarmey,61,PE,1584487912,65,-10.07,-78.15,74.76799999999999,2.12
270,Il’inskiy,26,RU,1584487913,59,55.62,38.12,37.66999999999996,3.0
271,Esperance,65,AU,1584487913,87,-33.87,121.9,57.469999999999956,4.6
272,Malanje,60,AO,1584487914,98,-9.54,16.34,63.733999999999995,1.3
273,Ca Mau,88,VN,1584487914,74,9.18,105.15,80.15,2.47
274,Bubaque,30,GW,1584487915,72,11.28,-15.83,79.57400000000001,9.43
275,Beringovskiy,21,RU,1584487916,84,63.05,179.32,33.16999999999996,6.0
276,Stykkisholmur,100,IS,1584487918,82,65.08,-22.73,26.761999999999954,13.43
277,Qusar,85,AZ,1584487919,84,41.43,48.43,29.60600000000003,1.29
278,Fort-Shevchenko,54,KZ,1584487922,67,44.51,50.26,35.33000000000004,6.33
279,Pão de Açúcar,99,BR,1584487928,79,-9.75,-37.44,78.65600000000003,4.33
280,Constitución,2,CL,1584487680,91,-35.33,-72.42,55.742,3.59
281,Paamiut,96,GL,1584487928,53,61.99,-49.67,11.983999999999991,5.95
282,Agua Verde,75,MX,1584487929,54,22.9,-106.05,79.06999999999996,4.6
283,Cowra,0,AU,1584487929,64,-33.83,148.68,65.26400000000004,0.89
284,Lüderitz,0,NA,1584487929,82,-26.65,15.16,61.069999999999965,2.6
285,Kumul,17,CN,1584487930,23,42.8,93.45,40.477999999999966,1.17
286,Flinders,0,AU,1584487703,64,-34.58,150.86,74.26400000000004,3.6
287,Dudinka,75,RU,1584487821,85,69.41,86.18,10.669999999999959,12.0
288,Nemuro,0,JP,1584487930,81,43.32,145.57,32.522000000000034,0.06
289,Olafsvik,100,IS,1584487931,80,64.89,-23.71,27.967999999999982,16.95
290,Talnakh,75,RU,1584487931,85,69.49,88.4,10.669999999999959,12.0
291,Hay River,75,CA,1584487931,78,60.82,-115.8,8.869999999999958,2.6
292,Dalbandin,36,PK,1584487931,34,28.89,64.41,66.48800000000006,2.56
293,Cap Malheureux,40,MU,1584487932,88,-19.98,57.61,77.26999999999995,3.02
294,Bozoum,88,CF,1584487932,23,6.32,16.38,70.73599999999996,1.67
295,Ostrovnoy,4,RU,1584487932,96,68.05,39.51,17.041999999999994,5.94
296,Merauke,67,ID,1584487932,70,-8.47,140.33,84.34399999999997,2.76
297,Otane,100,NZ,1584487933,53,-39.88,176.63,58.819999999999965,1.97
298,Šekovići,91,BA,1584487933,69,44.3,18.85,37.66999999999996,0.5
299,São Filipe,71,CV,1584487933,77,14.9,-24.5,67.58599999999997,7.5
300,Graaff-Reinet,0,ZA,1584487934,62,-32.25,24.53,71.27599999999998,0.89
301,Dzhebariki-Khaya,78,RU,1584487934,93,62.22,135.8,1.814000000000032,0.94
302,Lowestoft,23,GB,1584487934,87,52.48,1.75,51.27799999999996,7.2
303,Manavālakurichi,40,IN,1584487934,65,8.13,77.3,82.66999999999996,10.97
304,Maniitsoq,100,GL,1584487935,77,65.42,-52.9,16.501999999999974,9.99
305,Nabire,100,ID,1584487935,90,-3.37,135.48,77.05399999999995,0.19
306,Puerto Baquerizo Moreno,20,EC,1584487935,70,-0.9,-89.6,84.46999999999997,4.6
307,Karratha,7,AU,1584487935,58,-20.74,116.85,88.358,4.97
308,Shujaabad,20,PK,1584487936,88,29.88,71.29,64.66999999999996,0.21
309,Paphos,75,CY,1584487936,70,34.77,32.42,48.469999999999956,2.6
310,Lagoa,0,PT,1584487936,80,39.05,-27.98,62.851999999999975,7.13
311,Lakes Entrance,50,AU,1584487936,60,-37.88,147.98,70.66400000000004,2.62
312,Isangel,75,VU,1584487936,70,-19.55,169.27,86.26999999999995,3.1
313,Manta,75,EC,1584487722,78,-0.95,-80.73,82.66999999999996,4.1
314,Mariehamn,71,AX,1584487644,81,60.1,19.93,43.06999999999996,5.1
315,Ilulissat,96,GL,1584487937,59,69.22,-51.1,3.46999999999996,9.8
316,Ylöjärvi,75,FI,1584487937,93,61.56,23.6,37.274000000000015,4.6
317,Severo-Kuril'sk,100,RU,1584487938,85,50.68,156.12,21.596000000000046,10.5
318,Boca do Acre,100,BR,1584487938,97,-8.75,-67.4,74.58800000000005,1.2
319,Luena,98,AO,1584487938,97,-11.78,19.92,62.22200000000004,1.81
320,Lukuledi,100,TZ,1584487938,96,-10.57,38.8,69.22400000000002,0.93
321,Cabo San Lucas,75,MX,1584487939,64,22.89,-109.91,80.86999999999996,3.6
322,Kodinsk,81,RU,1584487939,95,58.69,99.18,5.288000000000043,2.16
323,Juye,0,CN,1584487940,15,35.39,116.09,60.27799999999996,0.45
324,Vanimo,59,PG,1584487941,74,-2.67,141.3,82.58000000000004,3.78
325,Auki,0,SB,1584487941,73,-8.77,160.7,84.2,1.9
326,Grand Gaube,40,MU,1584487675,88,-20.01,57.66,77.26999999999995,3.02
327,Waliso,100,ET,1584487942,95,8.53,37.98,56.39000000000002,1.5
328,Hasaki,20,JP,1584487943,57,35.73,140.83,52.26799999999999,2.6
329,Atasū,6,KZ,1584487943,84,48.68,71.64,20.94800000000002,1.03
330,Zambezi,100,ZM,1584487944,97,-13.54,23.1,66.10999999999999,1.55
331,Clyde River,90,CA,1584487715,75,70.47,-68.59,-16.32999999999999,5.1
332,São Félix do Xingu,94,BR,1584487944,96,-6.64,-51.99,74.642,0.78
333,Vao,62,NC,1584487944,74,-22.67,167.48,77.32400000000001,8.26
334,Altamira,100,BR,1584487945,93,-3.2,-52.21,75.63200000000002,0.92
335,Katsuura,20,JP,1584487945,50,35.13,140.3,55.66999999999996,3.1
336,Aswān,0,EG,1584487945,42,24.09,32.91,66.46999999999997,4.1
337,Yershov,7,RU,1584487945,73,51.35,48.28,32.35999999999998,3.39
338,Gorontalo,35,ID,1584487728,75,0.54,123.06,80.33000000000004,1.22
339,Vendôme,45,FR,1584487946,87,47.8,1.07,55.66999999999996,1.0
340,Banda Aceh,67,ID,1584487946,81,5.56,95.32,73.74199999999999,2.13
341,Rizhao,0,CN,1584487947,55,35.43,119.46,54.30199999999998,3.49
342,Fairbanks,90,US,1584487947,50,64.84,-147.72,37.66999999999996,0.41
343,Los Llanos de Aridane,20,ES,1584487947,77,28.66,-17.92,61.069999999999965,6.2
344,Sabha,81,LY,1584487947,23,27.04,14.43,70.51999999999995,6.67
345,Orange Walk District,20,BZ,1584487948,69,17.83,-88.83,82.66999999999996,4.6
346,Wadi Maliz,40,TN,1584487948,67,36.47,8.55,61.069999999999965,3.6
347,Vanavara,56,RU,1584487948,93,60.34,102.28,-1.2639999999999816,1.82
348,Mahébourg,40,MU,1584487948,88,-20.41,57.7,77.26999999999995,2.39
349,Bang Len,20,TH,1584487949,78,14.02,100.17,85.26199999999996,2.6
350,Williams Lake,40,CA,1584487949,32,52.14,-122.14,41.26999999999996,2.1
351,Ayagoz,100,KZ,1584487949,84,47.97,80.44,36.464000000000034,1.24
352,Port-Cartier,90,CA,1584487949,92,50.03,-66.87,27.26600000000001,7.2
353,Hohhot,100,CN,1584487950,58,40.81,111.65,26.86999999999996,3.0
354,Salta,75,AR,1584487950,83,-24.79,-65.41,71.86999999999996,3.1
355,Kampot,40,KH,1584487951,74,10.62,104.18,80.86999999999996,2.1
356,Amos,75,CA,1584487876,86,48.57,-78.12,28.66999999999996,5.1
357,Kumasi,100,GH,1584487685,87,6.69,-1.62,77.54000000000002,2.39
358,Mwense,62,ZM,1584487952,98,-10.38,28.7,65.51600000000002,0.4
359,Ponta Delgada,20,PT,1584487952,82,37.73,-25.67,55.66999999999996,1.5
360,Ola,93,RU,1584487704,80,59.58,151.28,10.238000000000046,0.7
361,Khovd,0,MN,1584487953,48,48.01,91.64,26.185999999999968,0.97
362,Bowen,13,AU,1584487955,73,-20.02,148.23,81.26600000000002,6.2
363,Kropotkin,100,RU,1584487955,58,45.44,40.58,34.26799999999999,4.68
364,Lata,0,PT,1584487956,87,40.16,-8.33,62.27599999999999,0.5
365,Flin Flon,40,CA,1584487956,38,54.77,-101.86,7.069999999999958,4.1
366,Husavik,90,IS,1584487956,95,66.04,-17.34,32.26999999999996,12.3
367,Kutum,0,SD,1584487783,23,14.2,24.67,59.05399999999995,1.74
368,Nacogdoches,90,US,1584487776,69,31.6,-94.63,77.26999999999995,2.6
369,Macusani,100,PE,1584487966,95,-14.08,-70.43,35.924000000000014,2.27
370,Maryborough,2,AU,1584487967,60,-25.53,152.7,76.424,4.25
371,Henties Bay,0,NA,1584487968,95,-22.12,14.28,62.27599999999999,2.37
372,Colares,15,PT,1584487968,50,38.8,-9.45,59.26999999999996,5.7
373,Yulara,0,AU,1584487968,28,-25.24,130.99,82.66999999999996,4.6
374,Sechura,15,PE,1584487969,86,-5.56,-80.82,76.45999999999998,4.62
375,Tautira,40,PF,1584487969,70,-17.73,-149.15,88.06999999999996,3.1
376,Dali,0,CN,1584487969,84,25.7,100.18,44.29399999999997,1.5
377,Friesach,75,AT,1584487969,76,46.96,14.41,52.069999999999965,2.6
378,Bud,1,US,1584487970,53,39.45,-86.18,54.266000000000005,0.78
379,Wick,84,GB,1584487970,74,58.43,-3.08,39.272000000000034,3.6
380,Necochea,100,AR,1584487836,87,-38.55,-58.74,65.26400000000004,0.77
381,The Valley,20,AI,1584487929,69,18.22,-63.06,80.86999999999996,3.1
382,Daura,92,NG,1584487972,8,11.55,11.41,75.29000000000002,4.12
383,Kushmurun,0,KZ,1584487973,88,52.45,64.63,18.89600000000005,3.96
384,Santa Barbara,40,US,1584487789,54,34.42,-119.7,61.069999999999965,2.6
385,San Luis,1,AR,1584487982,70,-33.3,-66.34,68.558,4.5
386,Port Blair,100,IN,1584487982,72,11.67,92.75,82.59800000000003,3.25
387,Peniche,0,PT,1584487960,87,39.36,-9.38,59.26999999999996,0.5
388,Jalu,0,LY,1584487984,34,29.03,21.55,58.424000000000014,5.11
389,Lusambo,100,CD,1584487985,99,-4.97,23.45,68.88200000000002,0.37
390,Daru,68,PG,1584487986,67,-9.08,143.21,85.81999999999996,2.65
391,Silopi,100,TR,1584487986,85,37.25,42.47,55.25600000000003,4.67
392,Shakawe,96,BW,1584487987,90,-18.37,21.85,65.55199999999998,1.55
393,Vestmanna,43,FO,1584487988,70,62.16,-7.17,34.06999999999996,11.3
394,Belmonte,40,BR,1584487989,78,-15.86,-38.88,80.86999999999996,4.1
395,Kruisfontein,0,ZA,1584487870,83,-34.0,24.73,62.76199999999996,3.75
396,Waitati,0,NZ,1584487850,53,-45.75,170.57,59.26999999999996,4.02
397,Saint-Prosper,96,CA,1584487990,100,46.21,-70.48,35.27599999999999,4.02
398,Kuantan,20,MY,1584487990,94,3.81,103.33,75.46999999999997,1.0
399,Beisfjord,75,NO,1584487990,93,68.38,17.6,35.86999999999996,8.7
400,Klaksvík,43,FO,1584487990,67,62.23,-6.59,34.06999999999996,11.3
401,Khorixas,45,NA,1584487991,64,-20.37,14.97,72.5,1.3
402,Manjo,100,CM,1584487992,97,4.84,9.82,70.51999999999995,0.17
403,Kadhan,0,PK,1584487992,27,24.48,68.99,70.358,2.45
404,Havre-St-Pierre,90,CA,1584487993,92,50.23,-63.6,26.86999999999996,6.7
405,Okhotsk,0,RU,1584487994,78,59.38,143.3,6.40399999999995,2.31
406,Saint-François,0,FR,1584487995,87,46.42,3.91,43.06999999999996,0.68
407,Plettenberg Bay,0,ZA,1584487911,77,-34.05,23.37,64.56199999999995,4.45
408,Dubai,0,AE,1584487923,57,25.26,55.3,78.27799999999996,1.5
409,Šeduva,75,LT,1584487998,86,55.77,23.77,39.469999999999956,4.6
410,Shizunai-furukawachō,98,JP,1584487999,91,42.33,142.37,36.64399999999997,0.47
411,Grand-Santi,100,GF,1584488001,60,4.25,-54.38,82.85,2.75
412,Richards Bay,100,ZA,1584488002,70,-28.78,32.04,71.708,9.45
413,Yar-Sale,41,RU,1584488003,81,66.83,70.83,9.80600000000003,5.68
414,Cabedelo,48,BR,1584488004,83,-6.98,-34.83,80.86999999999996,3.1
415,Chumikan,98,RU,1584488004,77,54.72,135.31,27.877999999999965,3.29
416,Coquimbo,20,CL,1584488005,82,-29.95,-71.34,61.069999999999965,4.1
417,Ust-Maya,86,RU,1584488006,92,60.42,134.53,8.869999999999958,1.01
418,Mayo,90,US,1584488009,66,38.89,-76.51,63.266000000000005,2.1
419,Kapit,69,MY,1584488009,97,2.02,112.93,74.46199999999996,0.63
420,Aksarka,16,RU,1584488009,83,66.56,67.8,14.377999999999961,7.17
421,Yenagoa,86,NG,1584487901,89,4.92,6.26,79.34000000000003,2.25
422,Lahaina,40,US,1584487786,65,20.88,-156.68,82.66999999999996,4.1
423,Moreira Sales,0,BR,1584487896,84,-24.06,-53.01,75.01999999999995,2.34
424,Kenai,90,US,1584488012,92,60.55,-151.26,29.26400000000003,2.6
425,Tigil',100,RU,1584488012,80,57.8,158.67,15.241999999999994,0.9
426,Cairns,75,AU,1584487855,74,-16.92,145.77,82.27400000000002,6.2
427,Narón,0,ES,1584488015,87,43.52,-8.15,55.274000000000015,1.0
428,Atbasar,7,KZ,1584487924,93,51.8,68.33,17.725999999999985,4.55
429,Chui,100,UY,1584488017,83,-33.7,-53.46,68.03599999999997,4.44
430,Yarensk,84,RU,1584488019,88,62.17,49.09,25.75399999999995,4.29
431,Indramayu,74,ID,1584488020,78,-6.33,108.32,80.708,1.12
432,Pokhara,0,NP,1584488021,59,28.23,83.98,57.524000000000015,1.34
433,Bontang,67,ID,1584487839,80,0.13,117.5,81.85999999999999,6.86
434,Mergen,99,CN,1584488023,91,49.18,125.22,25.267999999999983,3.01
435,Poum,18,NC,1584488023,75,-20.23,164.02,80.40199999999999,6.89
436,Praia,75,CV,1584488023,68,14.92,-23.51,70.06999999999996,7.7
437,Sarandi,2,BR,1584488024,84,-23.44,-51.87,74.39000000000001,2.38
438,San Felipe,23,VE,1584488024,93,10.34,-68.74,70.96999999999997,1.07
439,Kutoarjo,100,ID,1584488025,86,-7.72,109.91,73.74199999999999,0.87
440,Shawinigan,75,CA,1584488026,90,46.57,-72.75,38.26400000000003,3.6
441,Zunyi,49,CN,1584488027,85,27.69,106.91,49.24399999999997,0.89
442,Tarakan,52,ID,1584488027,88,3.3,117.63,77.61199999999997,1.88
443,Half Moon Bay,75,US,1584487776,71,37.46,-122.43,57.469999999999956,2.1
444,Road Town,40,VG,1584488030,78,18.42,-64.62,79.06999999999996,2.6
445,Saint-Augustin,100,CA,1584488031,85,51.23,-58.65,27.716000000000008,9.73
446,Changji,100,CN,1584488031,45,44.02,87.32,44.86999999999996,4.0
447,Cabra,26,ES,1584488032,67,37.47,-4.44,59.26999999999996,5.1
448,Katete,100,UG,1584488032,95,-0.78,29.75,60.09800000000003,1.36
449,Savannah Bight,1,HN,1584488033,77,16.45,-85.85,80.34800000000003,8.36
450,Shuiji,100,CN,1584488033,96,27.42,118.34,53.47400000000002,0.48
451,Zhezkazgan,38,KZ,1584488034,75,47.8,67.71,25.34000000000002,1.9
452,Meulaboh,100,ID,1584488035,73,4.14,96.13,80.16799999999998,2.13
453,Cape Coast,100,GH,1584488035,85,5.11,-1.25,83.31799999999998,7.86
454,Oudtshoorn,0,ZA,1584488036,87,-33.59,22.2,61.069999999999965,2.1
455,Härnösand,0,SE,1584488037,100,62.63,17.94,42.27799999999996,1.0
456,Lubango,100,AO,1584488038,94,-14.92,13.49,61.71799999999999,1.47
457,Bandarbeyla,44,SO,1584488039,71,9.49,50.81,79.25,4.34
458,Gawler,53,AU,1584487839,24,-34.6,138.73,83.26400000000004,5.1
459,Jijiga,39,ET,1584488040,67,9.35,42.8,65.89399999999998,2.5
460,La Santisima Trinidad,75,BO,1584488042,79,-14.83,-64.9,84.46999999999997,0.97
461,Virginia Beach,75,US,1584487773,63,36.85,-75.98,66.46999999999997,4.1
462,Forio,1,IT,1584488044,93,40.73,13.86,55.274000000000015,4.62
463,Ekibastuz,0,KZ,1584488044,84,51.67,75.37,25.051999999999975,5.9
464,Shemgang,0,BT,1584488045,63,27.22,90.66,52.358000000000004,2.76
465,Hazaribagh,0,IN,1584488045,46,23.98,85.35,64.04000000000002,1.84
466,Nioro,0,GM,1584488050,43,13.35,-15.75,74.46199999999996,4.92
467,Beidao,30,CN,1584488052,38,34.57,105.89,44.096000000000046,0.52
468,Teya,100,RU,1584488052,85,60.38,92.63,11.35399999999995,2.32
469,Barra do Corda,82,BR,1584488053,94,-5.5,-45.25,75.308,1.07
470,Santa Maria,0,BR,1584488053,66,-29.68,-53.81,75.70399999999995,3.25
471,Victor Harbor,99,AU,1584487823,24,-35.57,138.62,82.27400000000002,5.1
472,São José da Coroa Grande,17,BR,1584488053,75,-8.9,-35.15,83.71400000000003,5.65
473,Waingapu,0,ID,1584488054,72,-9.66,120.26,84.77599999999998,5.07
474,Sioux Lookout,1,CA,1584487854,38,50.1,-91.92,25.069999999999958,6.2
475,Sahuaripa,74,MX,1584488056,43,29.05,-109.23,67.76600000000002,5.02
476,Zhangjiakou,78,CN,1584488056,25,40.81,114.88,40.45999999999998,2.7
477,Traverse City,1,US,1584487801,38,44.76,-85.62,39.469999999999956,5.1
478,Tomohon,20,ID,1584487961,94,1.33,124.84,77.26999999999995,0.5
479,Eureka,90,US,1584487991,70,40.8,-124.16,49.26199999999996,2.6
480,Oranjemund,0,NA,1584488059,94,-28.55,16.43,60.78200000000002,2.33
481,Santa María del Oro,100,MX,1584488059,25,25.93,-105.37,72.57200000000003,10.53
482,Mbandaka,52,CD,1584488059,97,0.05,18.26,71.94200000000001,1.18
483,Jardim,10,BR,1584488060,90,-21.48,-56.14,74.56999999999996,1.42
484,Matara,100,LK,1584487882,76,5.95,80.54,77.59399999999997,5.17
485,Coari,100,BR,1584488062,96,-4.08,-63.14,76.38800000000005,0.69
486,Cayenne,6,GF,1584487804,88,4.93,-52.33,77.26999999999995,1.0
487,Marystown,55,CA,1584488064,77,47.17,-55.15,31.819999999999958,13.03
488,İskilip,58,TR,1584488065,65,40.74,34.47,25.861999999999956,3.37
489,Salinópolis,72,BR,1584488065,81,-0.61,-47.36,82.50800000000001,5.29
490,Chanika,100,TZ,1584488066,98,-5.42,38.02,70.21400000000003,0.3
491,Seoul,90,KR,1584487751,100,37.57,126.98,39.469999999999956,1.0
492,Geraldton,93,AU,1584488068,59,-28.77,114.6,64.66999999999996,3.6
493,Evensk,98,RU,1584488068,90,61.95,159.23,12.001999999999974,1.32
494,Kisangani,99,CD,1584488068,99,0.52,25.2,71.24000000000002,1.53
495,Kolokani,64,ML,1584488068,12,13.57,-8.03,82.02200000000005,3.81
496,Laas,15,IT,1584488069,86,46.62,10.7,42.27799999999996,2.1
497,Rūdbār,75,AF,1584487778,34,30.15,62.6,69.674,5.18
498,Saint Anthony,40,US,1584487851,41,45.02,-93.22,43.26799999999999,3.6
499,São João da Barra,75,BR,1584488069,88,-21.64,-41.05,75.46999999999997,6.2
500,Tres Arroyos,100,AR,1584488070,88,-38.37,-60.28,62.99600000000005,1.91
501,Buchanan,75,LR,1584488070,83,5.88,-10.05,82.66999999999996,2.6
502,Rundu,100,NA,1584488070,94,-17.93,19.77,70.06999999999996,4.1
503,Nador,90,MA,1584488070,93,35.17,-2.93,61.069999999999965,5.7
504,Alyangula,6,AU,1584488071,88,-13.85,136.42,79.06999999999996,0.5
505,Whitehorse,75,CA,1584488069,88,60.72,-135.05,34.26799999999999,0.83
506,Nadym,94,RU,1584488009,85,65.53,72.52,17.114000000000033,7.48
507,Turbat,0,PK,1584487893,28,26.0,63.04,66.14600000000004,0.54
508,Plácido de Castro,100,BR,1584488073,98,-10.34,-67.19,75.2,1.26
509,Remontnoye,100,RU,1584488073,66,46.56,43.65,32.26999999999996,2.0
510,Slave Lake,40,CA,1584487945,67,55.28,-114.77,23.26999999999996,3.1
511,Sisimiut,100,GL,1584488074,76,66.94,-53.67,7.159999999999979,8.2
512,Kiryat Gat,75,IL,1584488074,87,31.61,34.76,56.26400000000004,5.1
513,São Mateus do Maranhão,81,BR,1584488075,90,-4.04,-44.48,75.05600000000004,1.12
514,Khani,90,GE,1584488075,93,41.96,42.96,37.66999999999996,1.0
515,Sri Aman,66,MY,1584488076,100,1.24,111.46,75.46999999999997,0.83
516,Rio Bonito,90,BR,1584488078,100,-22.71,-42.61,75.46999999999997,3.1
517,Gibsons,20,CA,1584488079,76,49.4,-123.5,57.272000000000034,5.7
518,San Cristobal,40,VE,1584488079,58,7.77,-72.22,84.46999999999997,2.1
519,Ossora,100,RU,1584488079,86,59.24,163.07,18.625999999999987,5.56
520,Lompoc,20,US,1584487892,50,34.64,-120.46,58.26199999999996,3.6
521,Pacific Grove,40,US,1584488068,71,36.62,-121.92,56.26400000000004,2.1
522,Liberty,75,US,1584488088,88,31.83,-81.5,79.06999999999996,0.64
523,Pallasovka,0,RU,1584488089,56,50.05,46.88,33.44000000000002,2.14
524,Shestakovo,88,RU,1584488091,97,56.49,103.96,4.135999999999967,1.61
525,Lac du Bonnet,100,CA,1584488093,59,50.25,-96.06,23.26999999999996,1.74
526,Broken Hill,0,AU,1584488093,40,-31.95,141.43,73.66999999999996,4.6
527,Plérin,57,FR,1584488093,93,48.54,-2.78,44.86999999999996,3.16
528,Jalgaon,28,IN,1584488093,53,21.02,75.57,75.90199999999999,0.8
529,Kondinskoye,71,RU,1584488094,84,59.65,67.41,21.380000000000038,6.3
530,Camaná,92,PE,1584488094,85,-16.62,-72.71,67.1,2.19
531,Vostok,37,RU,1584488094,87,46.49,135.88,26.00600000000003,2.46
532,Chuka,100,KE,1584488094,84,-0.33,37.65,62.311999999999955,1.56
533,Thinadhoo,46,MV,1584488095,78,0.53,72.93,84.34399999999997,6.6
534,Itupiranga,40,BR,1584488095,88,-5.13,-49.33,82.66999999999996,1.0
535,Uvat,100,RU,1584488095,82,59.14,68.9,25.55600000000003,6.41
536,Haines Junction,45,CA,1584488095,77,60.75,-137.51,25.75399999999995,1.37
537,College,90,US,1584488059,50,64.86,-147.8,37.66999999999996,0.46
538,Ixtapa,90,MX,1584488096,78,20.7,-105.2,77.26999999999995,5.7
539,Leningradskiy,100,RU,1584488097,79,69.38,178.42,29.498000000000026,3.32
540,Marawi,95,PH,1584488097,84,8.0,124.29,75.27200000000005,3.13
541,Shache,100,CN,1584487883,26,38.42,77.24,48.14600000000005,1.46
542,La Ronge,40,CA,1584488097,42,55.1,-105.28,7.069999999999958,3.1
543,Avera,1,US,1584488099,82,33.19,-82.53,71.86999999999996,2.1
544,El Dorado,90,US,1584488099,68,33.21,-92.67,68.26999999999995,4.6
545,Pangnirtung,90,CA,1584488099,77,66.15,-65.71,5.269999999999957,7.2
546,Dubrovka,33,RU,1584488099,95,53.69,33.51,34.483999999999995,2.92
547,Moss Vale,0,AU,1584488099,64,-34.55,150.38,75.27200000000005,3.6
548,Vieques,90,PR,1584488100,74,18.43,-65.83,80.86999999999996,6.2
549,Morón,90,AR,1584488100,100,-34.65,-58.62,64.66999999999996,2.6
550,Nampa,40,US,1584488063,71,43.54,-116.56,57.272000000000034,8.2
551,Jugsālai,0,IN,1584488101,44,22.77,86.18,70.34000000000003,0.91
552,Barra do Garças,18,BR,1584488102,86,-15.89,-52.26,73.88599999999997,0.9
553,Mossamedes,100,AO,1584487908,80,-15.2,12.15,73.74199999999999,1.86
554,Kachug,44,RU,1584488102,94,53.96,105.88,6.961999999999954,1.1
555,Faya,40,SA,1584488103,87,18.39,42.45,62.86999999999996,4.6
556,Kolpashevo,100,RU,1584488104,83,58.31,82.91,25.51999999999996,7.41
